nombre,lat,lon,motivo,Cluster
Taposiris Magna,30.917,29.311,Restos arqueológicos sugieren templos ocultos,5
Alejandría,31.2,29.916,Antiguos textos mencionan un mausoleo oculto,3
Abusir,30.978,29.497,Exploraciones recientes indican estructuras subterráneas,1
Borg el-Arab,30.894,29.549,Teorías modernas sugieren esta zona como candidata,6
Siwa Oasis,29.183,25.55,"Herencia greco-egipcia, templos ocultos en oasis",2
El Alamein,30.83,28.955,Inscripciones antiguas sugieren un santuario oculto,4
Menfis,29.85,31.25,"Centro político en la época ptolemaica, posible refugio",0
